timestamp,elapsed_time,rpm,speed_mph,throttle_pos,coolant_temp_f,intake_temp_f,maf_gps,engine_load,timing_advance,fuel_trim_short,fuel_trim_long,accel_long_g,accel_lat_g,accel_vert_g,accel_total_g,pitch_deg,roll_deg,yaw_rate_dps,gps_lat,gps_lon,gps_alt_m,gps_speed_mph,gps_heading,gps_satellites,gps_valid,temp_oil_f,temp_intake_f,temp_brake_f,temp_trans_f,temp_ambient_f
2025-10-28T10:55:11.242146,0.0,800,0.2,97.8,184.8,85.1,51.1,80.2,17.2,-0.3,-0.0,0.398,-0.028,-0.041,0.399,0.83,-0.47,-1.88,33.955552,-117.3962,396.0,0.9,0.0,11,True,195.4,84.8,190.6,199.3,77.2
2025-10-28T10:55:11.242974,0.02,814,0.3,97.2,185.2,85.9,55.3,79.7,19.3,-0.5,-0.4,0.397,-0.01,-0.154,0.397,0.37,0.18,-2.62,33.955552,-117.3962,393.3,-0.0,0.0,11,True,194.0,85.3,182.7,200.0,78.9
2025-10-28T10:55:11.243046,0.04,781,0.5,92.2,186.2,84.9,51.6,75.6,18.9,3.2,-1.0,0.357,0.011,0.006,0.357,1.01,-0.22,2.73,33.955552,-117.3962,392.2,-0.4,0.0,10,True,194.8,84.3,181.4,200.4,77.5
2025-10-28T10:55:11.243096,0.06,863,0.7,92.8,183.9,84.9,53.5,76.1,18.0,3.3,-1.8,0.389,0.035,0.084,0.39,0.53,0.09,-1.56,33.955552,-117.3962,395.7,-0.7,0.0,11,True,193.6,85.7,190.1,196.0,77.0
2025-10-28T10:55:11.243136,0.08,826,0.8,95.0,184.3,83.3,52.5,77.9,24.4,0.6,1.6,0.38,0.015,-0.102,0.381,0.95,0.53,2.32,33.955552,-117.3962,397.1,1.6,0.0,7,True,196.7,86.5,183.9,199.6,78.5
2025-10-28T10:55:11.243174,0.1,887,1.0,97.3,187.0,84.3,51.9,79.7,23.5,1.5,1.3,0.406,0.041,-0.135,0.408,1.1,0.27,0.75,33.955552,-117.3962,397.0,1.2,0.0,9,True,194.7,83.9,185.1,197.1,77.9
2025-10-28T10:55:11.243214,0.12,878,1.2,93.1,187.8,84.9,54.9,76.3,25.8,1.8,0.5,0.386,-0.006,-0.076,0.386,0.78,0.24,4.98,33.955552,-117.3962,397.9,2.7,0.0,11,True,197.1,83.6,186.9,198.5,78.1
2025-10-28T10:55:11.243369,0.14,896,1.4,94.8,187.6,82.6,51.1,77.7,25.1,-0.8,-1.8,0.39,-0.007,-0.01,0.39,0.38,0.47,1.3,33.955552,-117.396199,393.0,0.1,0.0,8,True,194.8,87.7,189.1,200.9,78.1
2025-10-28T10:55:11.243432,0.16,877,1.5,93.6,186.2,84.2,51.4,76.7,20.0,-0.5,-1.6,0.38,0.028,-0.066,0.381,0.49,-0.26,-3.3,33.955552,-117.396199,395.2,3.0,0.0,9,True,198.0,85.6,181.5,197.6,77.8
2025-10-28T10:55:11.243478,0.18,854,1.7,94.8,186.2,86.5,55.7,77.8,16.5,0.1,1.7,0.362,-0.04,0.089,0.364,0.27,0.36,-1.88,33.955552,-117.396199,392.6,1.0,0.0,7,True,193.8,85.8,188.2,200.1,79.0
2025-10-28T10:55:11.243521,0.2,879,1.9,91.2,185.0,84.5,55.2,74.7,21.6,-2.1,-0.9,0.394,0.05,-0.13,0.397,1.08,0.41,5.14,33.955552,-117.396199,397.1,1.9,0.0,7,True,193.8,85.7,186.7,199.1,78.8
2025-10-28T10:55:11.243563,0.22,856,2.0,94.7,183.9,84.1,55.7,77.7,22.2,0.3,0.2,0.398,0.026,-0.112,0.399,0.46,0.02,-3.06,33.955552,-117.396199,396.6,1.7,0.0,9,True,194.8,83.2,182.9,199.6,77.9
2025-10-28T10:55:11.243604,0.24,904,2.2,90.1,183.6,83.5,52.7,73.8,25.4,3.2,-1.7,0.389,0.035,-0.148,0.39,0.97,0.12,3.79,33.955552,-117.396198,393.6,1.1,0.0,11,True,193.1,86.3,186.4,195.8,78.5
2025-10-28T10:55:11.243674,0.26,939,2.4,92.3,187.1,87.8,53.7,75.7,25.8,-1.2,0.9,0.372,0.022,-0.077,0.372,0.54,-0.26,-1.99,33.955552,-117.396198,393.6,3.4,0.0,9,True,193.3,83.2,185.0,199.6,78.6
2025-10-28T10:55:11.243729,0.28,976,2.5,96.5,184.6,85.2,55.6,79.1,25.5,0.6,-1.5,0.351,0.001,0.087,0.351,0.69,0.16,7.65,33.955552,-117.396198,394.2,1.9,0.0,8,True,193.6,84.8,190.8,200.1,78.1
2025-10-28T10:55:11.243774,0.3,965,2.7,96.8,185.8,83.3,53.9,79.4,18.5,-2.4,0.3,0.388,0.041,-0.179,0.39,0.63,-0.37,-6.45,33.955552,-117.396198,397.1,1.2,0.0,9,True,196.2,84.9,186.2,195.5,78.8
2025-10-28T10:55:11.243814,0.32,899,2.9,92.5,183.4,84.0,53.0,75.8,25.6,0.8,1.1,0.352,0.045,0.122,0.355,0.49,0.55,-4.36,33.955552,-117.396197,396.2,2.1,0.1,8,True,195.5,83.2,183.8,198.6,79.0
2025-10-28T10:55:11.243853,0.34,975,3.0,91.3,186.4,84.0,57.0,74.8,15.2,1.2,1.6,0.366,0.001,-0.05,0.366,0.78,0.29,2.56,33.955552,-117.396197,392.3,3.2,0.1,10,True,194.3,87.0,182.4,197.0,78.1
2025-10-28T10:55:11.243896,0.36,951,3.2,96.9,187.9,82.6,52.9,79.5,20.7,-3.4,1.2,0.378,-0.04,-0.096,0.38,0.7,-0.51,-7.69,33.955552,-117.396197,397.8,3.5,0.1,8,True,195.8,86.2,185.8,197.6,77.7
2025-10-28T10:55:11.243932,0.38,975,3.3,98.7,187.3,85.5,55.6,80.9,19.8,-0.7,1.2,0.373,-0.012,-0.008,0.373,0.77,-0.48,-2.57,33.955552,-117.396197,395.1,3.6,0.1,7,True,194.2,85.2,183.1,197.6,78.6
2025-10-28T10:55:11.243968,0.4,993,3.5,97.2,187.6,86.8,55.3,79.7,17.9,2.1,0.0,0.358,-0.034,-0.12,0.36,0.59,-0.15,-4.6,33.955552,-117.396196,392.9,2.9,0.1,8,True,196.2,83.6,186.5,198.3,77.9
2025-10-28T10:55:11.244006,0.42,951,3.7,98.5,187.2,84.2,53.7,80.7,15.7,-3.2,-1.8,0.356,-0.034,0.07,0.358,0.25,0.23,4.82,33.955552,-117.396196,397.0,5.0,0.1,7,True,196.9,86.9,184.0,198.2,77.5
2025-10-28T10:55:11.244045,0.44,994,3.8,96.3,183.1,87.4,52.4,79.0,22.5,0.9,2.2,0.387,-0.013,-0.12,0.387,0.44,0.42,-4.69,33.955552,-117.396195,392.4,2.8,0.1,7,True,193.2,85.5,190.5,196.3,77.2
2025-10-28T10:55:11.244086,0.46,1041,4.0,90.1,185.2,84.9,53.7,73.9,22.5,1.5,1.4,0.387,0.007,0.142,0.387,0.61,0.06,4.41,33.955552,-117.396195,397.7,5.5,0.1,11,True,193.2,84.4,183.2,197.4,77.4
2025-10-28T10:55:11.244128,0.48,1045,4.2,98.6,186.9,85.8,58.1,80.9,15.3,-0.6,-0.8,0.382,-0.03,0.014,0.383,0.68,0.01,-2.31,33.955552,-117.396195,393.5,3.2,0.1,7,True,196.6,83.8,189.3,196.2,77.1
2025-10-28T10:55:11.244170,0.5,1015,4.3,97.5,185.9,84.4,55.8,79.9,21.6,3.5,0.9,0.367,0.007,-0.12,0.367,0.58,-0.23,-1.4,33.955552,-117.396194,395.5,4.8,0.1,7,True,195.1,85.9,184.0,198.6,78.0
2025-10-28T10:55:11.244209,0.52,1076,4.5,91.7,187.2,86.1,58.3,75.2,22.2,-2.9,-1.8,0.397,-0.049,-0.13,0.4,0.44,-0.53,-2.44,33.955552,-117.396194,396.9,3.5,0.1,9,True,194.7,83.8,185.4,197.4,78.2
2025-10-28T10:55:11.244246,0.54,1083,4.7,92.4,183.9,87.9,55.9,75.8,25.8,2.9,0.4,0.389,0.038,-0.15,0.391,0.92,0.53,-0.25,33.955552,-117.396193,395.3,5.2,0.1,8,True,198.0,84.1,187.7,199.3,78.3
2025-10-28T10:55:11.244332,0.56,1019,4.8,98.2,184.1,87.6,53.4,80.5,16.4,-2.2,1.9,0.369,0.002,-0.07,0.369,0.68,-0.43,-0.82,33.955552,-117.396193,397.8,4.3,0.1,9,True,195.3,83.3,186.1,197.7,78.1
2025-10-28T10:55:11.244380,0.58,1056,5.0,93.4,187.0,85.3,57.4,76.6,25.3,3.2,1.0,0.405,0.012,0.102,0.405,0.99,0.37,6.31,33.955552,-117.396192,397.0,4.5,0.2,7,True,195.8,85.9,186.7,197.5,77.9
2025-10-28T10:55:11.244420,0.6,1065,5.2,99.9,186.0,87.1,54.8,81.9,18.3,2.6,-1.2,0.387,0.004,-0.146,0.387,0.49,-0.42,3.34,33.955552,-117.396192,394.7,5.4,0.2,9,True,197.9,87.7,189.3,198.1,78.5
2025-10-28T10:55:11.244456,0.62,1109,5.4,90.6,188.0,86.1,57.2,74.3,16.2,0.8,-1.0,0.392,-0.018,-0.046,0.393,0.37,-0.2,-6.64,33.955552,-117.396191,396.2,6.4,0.2,9,True,194.0,85.5,183.0,200.4,77.5
2025-10-28T10:55:11.244493,0.64,1095,5.5,95.0,187.3,86.2,57.7,77.9,22.9,-2.3,-1.3,0.395,0.028,-0.01,0.396,0.99,0.27,5.67,33.955552,-117.396191,395.5,4.8,0.2,9,True,194.6,84.6,183.0,199.5,77.4
2025-10-28T10:55:11.244533,0.66,1054,5.7,90.6,183.4,87.4,56.4,74.3,24.5,1.8,1.6,0.365,-0.026,-0.098,0.366,0.85,-0.11,-7.23,33.955552,-117.39619,395.5,5.8,0.2,7,True,195.2,86.0,187.0,197.1,78.5
2025-10-28T10:55:11.244572,0.68,1140,5.9,99.4,183.7,84.9,53.6,81.5,23.5,-1.3,-1.5,0.362,0.02,-0.131,0.363,0.71,0.53,7.9,33.955552,-117.39619,393.7,6.7,0.2,8,True,195.8,86.9,188.6,198.0,77.9
2025-10-28T10:55:11.244655,0.7,1155,6.0,98.3,185.2,86.2,53.6,80.6,23.5,-2.9,-1.7,0.402,-0.035,-0.171,0.404,0.94,-0.48,-3.09,33.955552,-117.396189,394.6,6.6,0.2,11,True,197.5,85.5,189.9,196.4,78.8
2025-10-28T10:55:11.244744,0.72,1154,6.2,95.8,186.9,83.7,59.1,78.6,15.5,1.3,-1.1,0.381,-0.033,-0.128,0.383,0.53,-0.02,-6.5,33.955552,-117.396189,393.4,5.7,0.2,9,True,195.4,84.4,185.2,198.1,77.4
2025-10-28T10:55:11.244817,0.74,1119,6.4,99.1,185.5,85.4,54.3,81.2,21.1,2.1,1.1,0.377,0.006,0.045,0.377,0.39,-0.48,-5.1,33.955552,-117.396188,392.8,7.5,0.3,7,True,197.7,83.5,190.0,200.7,77.9
2025-10-28T10:55:11.244882,0.76,1183,6.5,93.8,187.1,83.0,55.3,76.9,16.4,1.1,-1.4,0.354,0.047,-0.163,0.357,0.89,0.57,-0.04,33.955552,-117.396187,393.3,6.4,0.3,10,True,195.3,84.5,183.4,199.9,77.3
2025-10-28T10:55:11.244950,0.78,1106,6.7,96.7,187.8,86.0,53.6,79.3,25.7,0.3,-1.0,0.354,0.025,0.115,0.355,0.71,-0.05,-0.36,33.955552,-117.396187,393.8,7.8,0.3,7,True,197.5,87.7,183.8,196.6,78.6
2025-10-28T10:55:11.245017,0.8,1196,6.8,91.1,183.1,84.4,55.9,74.7,25.6,-2.2,0.4,0.365,-0.034,0.051,0.367,0.52,-0.21,4.22,33.955552,-117.396186,395.5,7.7,0.3,7,True,194.0,88.0,189.8,200.6,78.3
2025-10-28T10:55:11.245083,0.82,1187,7.0,96.7,183.6,82.5,54.9,79.3,21.3,-2.1,-0.8,0.362,0.041,0.157,0.364,0.49,-0.2,-4.33,33.955552,-117.396185,393.8,5.9,0.3,9,True,197.5,85.9,190.9,199.5,77.2
2025-10-28T10:55:11.245148,0.84,1125,7.2,95.9,185.7,84.2,54.1,78.7,15.6,-0.3,-2.0,0.4,-0.038,-0.171,0.402,0.79,0.38,-2.5,33.955552,-117.396185,392.9,6.3,0.3,7,True,195.7,84.5,182.2,196.0,78.7
2025-10-28T10:55:11.245216,0.86,1195,7.3,92.1,186.9,88.1,56.2,75.5,18.0,1.8,-2.0,0.355,-0.032,-0.13,0.356,0.92,-0.05,3.09,33.955552,-117.396184,396.4,6.1,0.3,11,True,194.7,84.0,190.4,196.6,78.0
2025-10-28T10:55:11.245286,0.88,1203,7.5,93.4,183.6,87.4,58.8,76.6,26.0,-1.2,-0.9,0.401,-0.042,-0.08,0.403,0.8,0.07,0.64,33.955552,-117.396183,397.9,7.3,0.4,7,True,194.0,86.3,186.6,195.5,77.4
2025-10-28T10:55:11.245351,0.9,1164,7.7,96.9,186.5,83.0,54.0,79.4,16.7,-3.3,0.7,0.403,0.022,-0.139,0.403,1.03,0.46,-0.94,33.955552,-117.396182,397.7,6.6,0.4,9,True,194.9,86.4,189.7,201.0,77.3
2025-10-28T10:55:11.245415,0.92,1246,7.9,94.9,186.3,83.8,57.8,77.8,21.1,-2.2,-0.3,0.399,-0.048,-0.024,0.402,0.74,-0.01,-4.97,33.955552,-117.396182,396.0,7.3,0.4,10,True,195.4,86.1,185.6,199.1,78.1
2025-10-28T10:55:11.245481,0.94,1173,8.0,94.2,184.6,86.4,59.2,77.2,16.3,1.6,0.9,0.401,-0.006,0.161,0.401,0.47,0.44,2.38,33.955552,-117.396181,392.3,6.9,0.4,9,True,193.8,84.4,186.2,198.8,77.0
2025-10-28T10:55:11.245555,0.96,1209,8.2,90.5,187.1,86.4,57.0,74.2,15.6,-1.1,0.5,0.406,0.006,0.062,0.406,0.71,0.08,2.58,33.955552,-117.39618,396.3,8.9,0.4,9,True,194.7,84.8,185.5,200.8,78.7
2025-10-28T10:55:11.245623,0.98,1237,8.4,95.1,184.2,86.3,60.0,78.0,19.8,0.4,0.6,0.373,0.013,0.141,0.373,0.29,-0.15,-2.07,33.955552,-117.396179,394.5,8.0,0.4,8,True,197.5,88.0,182.0,195.6,77.5
2025-10-28T10:55:11.245812,1.0,1218,8.5,92.8,186.7,83.9,59.2,76.1,20.3,2.3,-0.2,0.39,0.005,-0.17,0.39,0.41,-0.26,-7.59,33.955552,-117.396178,392.7,7.2,0.5,10,True,193.7,84.5,182.0,196.0,78.0
2025-10-28T10:55:11.245900,1.02,1246,8.7,95.9,187.0,82.7,55.2,78.7,19.1,0.4,-1.3,0.377,-0.001,0.035,0.377,0.94,-0.28,-7.16,33.955552,-117.396178,393.3,10.1,0.5,8,True,193.9,85.1,183.9,200.3,78.2
2025-10-28T10:55:11.245968,1.04,1219,8.9,98.6,183.9,82.5,54.2,80.8,17.9,1.4,1.5,0.401,-0.005,-0.097,0.401,0.49,0.38,6.06,33.955552,-117.396177,396.8,8.8,0.5,11,True,198.0,88.0,183.2,197.9,77.9
2025-10-28T10:55:11.246039,1.06,1269,9.1,93.5,187.2,87.4,60.7,76.7,22.6,-2.8,-1.1,0.383,0.045,-0.159,0.385,1.03,-0.21,3.14,33.955552,-117.396176,393.4,8.5,0.5,10,True,196.1,83.8,189.5,197.0,77.1
2025-10-28T10:55:11.246104,1.08,1291,9.2,97.7,185.1,82.7,56.4,80.1,25.2,3.3,1.4,0.374,-0.033,-0.025,0.376,0.6,-0.52,6.72,33.955552,-117.396175,395.2,9.0,0.5,10,True,196.1,86.9,184.0,198.1,78.0
2025-10-28T10:55:11.246173,1.1,1320,9.4,98.2,185.7,87.8,55.3,80.5,16.1,-0.4,-0.7,0.356,-0.02,0.035,0.357,0.75,-0.11,-5.71,33.955552,-117.396174,396.9,8.5,0.5,10,True,197.2,87.6,182.7,198.2,77.6
2025-10-28T10:55:11.246239,1.12,1290,9.5,94.5,187.7,87.9,55.5,77.5,25.8,-0.5,0.2,0.351,-0.006,-0.084,0.351,0.85,-0.48,-5.12,33.955552,-117.396173,392.6,8.7,0.6,10,True,197.5,84.4,183.3,195.6,78.9
2025-10-28T10:55:11.246469,1.14,1274,9.7,96.0,186.6,85.1,60.7,78.7,15.6,-2.6,-0.5,0.35,0.001,-0.175,0.35,0.32,0.27,4.55,33.955552,-117.396172,397.0,8.7,0.6,11,True,197.9,85.3,182.8,197.3,78.9
2025-10-28T10:55:11.246551,1.16,1299,9.8,94.4,187.8,84.1,60.1,77.4,20.8,-3.4,-1.5,0.356,0.029,0.043,0.357,0.66,-0.1,-5.04,33.955552,-117.396171,392.9,10.6,0.6,9,True,194.6,84.6,183.9,197.0,78.7
2025-10-28T10:55:11.246623,1.18,1292,10.0,90.5,186.2,86.6,58.7,74.2,25.3,3.1,1.4,0.377,0.009,-0.035,0.377,0.95,-0.15,-0.86,33.955552,-117.39617,396.6,10.2,0.6,7,True,195.2,84.0,185.1,200.2,78.8
2025-10-28T10:55:11.246690,1.2,1326,10.2,97.6,186.4,85.3,58.2,80.1,19.5,-1.4,1.4,0.389,0.017,-0.107,0.389,0.62,0.13,4.67,33.955552,-117.396169,396.2,8.7,0.6,7,True,195.7,85.7,181.5,200.1,78.1
2025-10-28T10:55:11.246752,1.22,1315,10.3,98.4,184.4,85.8,60.6,80.7,25.2,-2.5,1.4,0.357,0.004,-0.077,0.357,0.8,0.42,1.21,33.955552,-117.396168,395.1,9.9,0.7,8,True,197.3,84.4,185.3,196.8,78.5
2025-10-28T10:55:11.246823,1.24,1299,10.5,91.0,185.3,83.1,55.1,74.6,24.4,1.4,1.6,0.402,0.034,-0.051,0.403,0.93,0.35,0.53,33.955552,-117.396167,395.9,9.9,0.7,11,True,197.9,84.0,184.7,196.4,77.2
2025-10-28T10:55:11.246887,1.26,1329,10.7,97.7,187.6,83.0,56.4,80.2,23.9,-1.2,-1.8,0.363,0.037,0.041,0.365,0.44,0.15,7.3,33.955552,-117.396166,392.7,9.9,0.7,11,True,196.8,85.9,181.9,199.1,78.2
2025-10-28T10:55:11.246951,1.28,1408,10.9,98.4,184.0,87.9,56.8,80.7,25.4,-2.4,-0.7,0.407,0.022,0.177,0.408,0.35,0.28,7.76,33.955552,-117.396165,395.6,12.0,0.7,7,True,196.9,86.8,189.1,195.7,77.2
2025-10-28T10:55:11.247015,1.3,1403,11.0,91.8,184.0,87.6,60.6,75.3,21.6,-1.6,0.4,0.355,0.005,0.018,0.355,0.95,0.11,-0.29,33.955552,-117.396164,392.9,10.6,0.8,11,True,193.2,86.2,184.5,196.1,77.1
2025-10-28T10:55:11.247085,1.32,1414,11.2,94.6,186.5,83.4,56.3,77.5,20.4,-2.2,-0.9,0.354,0.006,-0.157,0.354,0.33,0.42,4.87,33.955552,-117.396163,395.1,11.4,0.8,11,True,195.8,86.0,186.2,200.0,78.6
2025-10-28T10:55:11.247149,1.34,1420,11.3,91.1,187.1,87.9,59.1,74.7,17.1,-0.1,1.1,0.4,0.033,0.161,0.401,1.09,0.05,-0.02,33.955552,-117.396162,395.9,12.7,0.8,9,True,194.4,88.0,190.1,199.5,78.5
2025-10-28T10:55:11.247214,1.36,1349,11.5,93.0,186.7,85.3,56.6,76.3,15.7,-0.9,2.1,0.39,-0.007,-0.12,0.39,0.83,0.31,5.25,33.955552,-117.396161,394.3,11.4,0.8,11,True,197.0,84.8,183.3,198.1,77.2
2025-10-28T10:55:11.247277,1.38,1396,11.7,92.7,187.0,83.1,61.4,76.0,23.6,-0.0,-2.1,0.36,0.012,0.175,0.361,0.45,-0.34,-1.29,33.955552,-117.39616,394.1,12.7,0.9,10,True,198.2,84.3,185.0,197.0,78.8
2025-10-28T10:55:11.247356,1.4,1457,11.8,94.9,187.1,86.3,57.7,77.8,20.7,1.2,-0.6,0.379,-0.023,0.155,0.38,0.96,0.16,-7.74,33.955552,-117.396158,396.6,11.3,0.9,10,True,196.6,84.4,190.9,196.9,78.2
2025-10-28T10:55:11.247421,1.42,1415,12.0,90.7,185.9,86.3,56.3,74.4,16.1,-1.7,-1.9,0.382,-0.012,-0.154,0.382,0.37,0.4,-0.76,33.955552,-117.396157,397.9,11.7,0.9,9,True,198.1,84.5,185.6,197.5,78.7
2025-10-28T10:55:11.247487,1.44,1398,12.2,97.1,187.7,84.8,59.0,79.6,21.0,1.1,-0.7,0.383,-0.021,-0.021,0.383,0.49,0.11,3.95,33.955552,-117.396156,395.9,11.6,0.9,8,True,196.3,83.4,190.6,200.7,77.6
2025-10-28T10:55:11.247555,1.46,1447,12.3,99.8,187.5,82.7,61.8,81.8,20.9,-2.1,-0.8,0.391,0.015,-0.002,0.392,0.33,0.18,-3.75,33.955552,-117.396155,394.3,12.0,1.0,7,True,197.2,87.2,186.0,198.5,77.7
2025-10-28T10:55:11.247626,1.48,1429,12.5,95.9,183.4,84.6,58.9,78.7,24.8,1.0,-1.3,0.387,-0.014,0.024,0.387,0.41,0.46,7.6,33.955552,-117.396154,393.8,11.3,1.0,7,True,197.1,87.6,181.7,198.3,77.1
2025-10-28T10:55:11.247788,1.5,1436,12.7,96.8,184.0,85.1,57.7,79.4,16.5,-2.6,-1.2,0.371,0.037,0.169,0.373,0.63,0.28,2.01,33.955552,-117.396153,394.6,12.9,1.0,10,True,195.3,84.5,189.1,201.1,78.3
2025-10-28T10:55:11.247870,1.52,1464,12.9,100.0,184.7,84.9,60.1,82.0,25.6,-1.7,-2.0,0.396,-0.028,0.06,0.397,0.45,-0.15,-7.82,33.955552,-117.396151,396.3,12.9,1.0,9,True,196.9,87.7,190.2,195.3,78.3
2025-10-28T10:55:11.247943,1.54,1508,13.0,95.3,185.0,84.2,58.1,78.1,24.1,-1.6,0.0,0.36,-0.005,0.152,0.36,0.45,0.29,-0.66,33.955552,-117.39615,393.6,13.6,1.1,8,True,194.3,86.2,190.4,197.2,77.6
2025-10-28T10:55:11.248010,1.56,1453,13.2,92.1,186.9,87.4,62.3,75.5,19.1,0.6,1.7,0.41,0.006,-0.138,0.41,0.96,0.34,2.49,33.955552,-117.396149,396.2,14.3,1.1,8,True,195.4,85.6,186.0,200.0,77.2
2025-10-28T10:55:11.248074,1.58,1467,13.4,91.8,183.6,84.9,58.7,75.3,23.4,-2.3,-1.8,0.37,0.014,0.158,0.371,0.83,-0.44,-2.32,33.955552,-117.396147,392.7,13.2,1.1,8,True,194.3,84.3,190.2,196.0,78.9
2025-10-28T10:55:11.248188,1.6,1537,13.5,98.1,185.7,87.7,58.3,80.4,23.4,1.7,-1.2,0.41,0.008,-0.038,0.41,0.53,-0.15,-6.85,33.955552,-117.396146,395.6,13.9,1.1,9,True,195.9,86.5,190.4,195.5,79.0
2025-10-28T10:55:11.248261,1.62,1467,13.7,91.9,184.7,83.9,61.7,75.4,18.9,1.0,1.9,0.363,0.013,-0.025,0.363,0.41,0.32,-6.56,33.955552,-117.396145,393.2,12.8,1.2,8,True,197.2,84.3,189.8,199.1,78.4
2025-10-28T10:55:11.248371,1.64,1560,13.9,93.5,186.4,82.8,59.2,76.7,21.7,0.1,0.2,0.355,-0.023,-0.144,0.356,0.94,-0.22,-5.97,33.955552,-117.396143,392.8,14.4,1.2,8,True,194.8,87.5,187.9,199.3,77.2
2025-10-28T10:55:11.248442,1.66,1505,14.0,98.2,184.7,83.5,59.3,80.5,24.5,-1.8,-0.9,0.401,0.012,0.067,0.401,0.46,-0.45,0.6,33.955552,-117.396142,393.1,12.8,1.2,9,True,196.1,84.6,181.8,196.2,78.5
2025-10-28T10:55:11.248494,1.68,1557,14.2,99.1,186.2,86.6,61.9,81.2,19.9,0.6,1.9,0.363,-0.006,0.141,0.363,0.63,0.32,3.96,33.955552,-117.396141,393.7,13.3,1.3,10,True,194.1,87.7,188.0,201.1,77.1
2025-10-28T10:55:11.248533,1.7,1541,14.4,94.5,185.9,86.6,61.0,77.5,17.4,1.2,-0.2,0.398,-0.039,0.009,0.4,0.57,0.15,7.13,33.955552,-117.396139,393.3,14.2,1.3,8,True,195.2,85.3,182.7,196.2,77.8
2025-10-28T10:55:11.248569,1.72,1514,14.5,91.0,184.7,83.0,58.6,74.6,21.6,0.9,-1.8,0.368,-0.032,-0.062,0.369,1.0,-0.41,2.37,33.955552,-117.396138,392.3,13.5,1.3,11,True,193.9,84.1,189.7,197.5,77.0
2025-10-28T10:55:11.248607,1.74,1603,14.7,99.2,186.3,84.4,62.6,81.3,15.5,2.8,0.3,0.383,-0.043,-0.036,0.386,0.81,-0.23,1.82,33.955552,-117.396136,392.7,15.4,1.3,10,True,196.6,85.0,185.2,195.4,77.1
2025-10-28T10:55:11.248642,1.76,1580,14.9,91.0,183.6,86.3,62.4,74.6,21.5,-1.1,0.8,0.351,0.032,0.005,0.352,0.86,-0.3,-5.75,33.955552,-117.396135,397.8,15.5,1.4,9,True,194.6,84.8,186.7,195.8,77.9
2025-10-28T10:55:11.248680,1.78,1580,15.0,91.1,187.9,82.5,62.8,74.7,21.8,0.8,-1.3,0.359,0.043,-0.061,0.362,0.86,0.57,6.23,33.955552,-117.396134,392.7,15.3,1.4,8,True,194.5,86.4,187.8,198.8,77.3
2025-10-28T10:55:11.248715,1.8,1566,15.2,97.0,185.7,83.1,60.6,79.5,17.0,1.6,-1.7,0.388,0.048,0.03,0.391,0.71,0.48,2.1,33.955552,-117.396132,395.1,13.7,1.4,10,True,195.0,87.5,186.6,199.6,78.1
2025-10-28T10:55:11.248753,1.82,1611,15.3,95.7,186.4,86.6,60.4,78.5,20.8,-0.4,-2.0,0.379,0.029,-0.148,0.38,0.41,0.12,-5.9,33.955552,-117.396131,397.6,15.9,1.5,11,True,197.3,83.9,181.9,199.5,78.6
2025-10-28T10:55:11.248789,1.84,1579,15.5,91.7,187.5,85.8,58.7,75.2,25.7,-2.5,-1.6,0.404,-0.033,0.106,0.406,1.09,-0.5,2.81,33.955551,-117.396129,395.0,14.4,1.5,8,True,195.7,84.4,185.3,197.2,77.9
2025-10-28T10:55:11.248826,1.86,1597,15.7,90.1,187.9,87.6,62.5,73.9,23.3,3.1,-1.6,0.388,-0.006,-0.164,0.388,0.65,0.26,-7.41,33.955551,-117.396128,392.2,16.4,1.5,7,True,197.2,84.2,186.0,196.1,78.2
2025-10-28T10:55:11.248866,1.88,1615,15.9,97.2,186.9,86.7,62.7,79.7,24.7,0.7,-1.0,0.386,-0.001,0.067,0.386,0.54,-0.13,-2.45,33.955551,-117.396126,396.8,16.6,1.6,7,True,194.0,83.6,189.6,199.0,78.1
2025-10-28T10:55:11.248902,1.9,1634,16.0,92.4,186.5,83.8,59.2,75.8,16.1,0.2,0.1,0.354,0.006,0.026,0.354,0.5,-0.4,-0.04,33.955551,-117.396124,394.7,14.6,1.6,11,True,194.6,86.1,182.8,198.5,77.5
2025-10-28T10:55:11.248937,1.92,1648,16.2,93.7,183.4,85.2,59.6,76.8,25.5,-0.0,-1.7,0.386,0.04,0.002,0.388,0.82,-0.31,-5.78,33.955551,-117.396123,392.1,17.6,1.6,11,True,197.3,87.3,186.8,199.4,77.0
2025-10-28T10:55:11.248975,1.94,1611,16.4,94.2,186.5,88.3,61.1,77.3,16.2,1.0,-0.5,0.383,0.026,0.156,0.383,0.56,-0.42,3.54,33.955551,-117.396121,392.2,15.2,1.7,9,True,198.2,83.6,189.7,196.5,78.5
2025-10-28T10:55:11.249013,1.96,1635,16.5,99.6,183.9,85.6,60.7,81.7,18.9,0.8,0.3,0.388,-0.035,-0.137,0.389,0.89,-0.01,-7.0,33.955551,-117.39612,396.2,17.1,1.7,10,True,194.7,84.3,188.0,200.3,77.1
2025-10-28T10:55:11.249048,1.98,1660,16.7,99.1,187.1,86.0,61.4,81.2,25.7,-2.7,0.6,0.377,0.048,-0.08,0.38,1.07,-0.2,6.87,33.955551,-117.396118,396.9,17.4,1.7,8,True,196.6,87.6,185.8,195.4,79.0
2025-10-28T10:55:11.249085,2.0,1631,16.9,96.2,186.8,86.6,62.5,78.9,16.0,0.6,0.5,0.403,0.018,-0.178,0.403,0.58,0.25,1.81,33.955551,-117.396116,396.2,17.2,1.8,8,True,194.4,85.0,181.9,199.3,78.1
2025-10-28T10:55:11.249123,2.02,1695,17.0,94.7,188.0,84.9,59.4,77.6,15.2,2.3,-2.2,0.369,-0.019,-0.026,0.369,1.01,0.43,2.51,33.955551,-117.396115,397.6,16.6,1.8,9,True,193.4,84.6,184.8,195.7,77.4
2025-10-28T10:55:11.249158,2.04,1696,17.2,93.8,187.2,85.9,59.1,76.9,25.2,1.8,2.0,0.408,-0.021,-0.011,0.409,1.11,-0.54,-6.37,33.955551,-117.396113,396.9,17.3,1.8,10,True,195.1,87.3,185.1,197.7,77.9
2025-10-28T10:55:11.249198,2.06,1700,17.4,92.0,186.3,83.0,60.6,75.4,23.9,0.8,-0.3,0.379,0.036,-0.015,0.381,0.32,0.19,-7.7,33.955551,-117.396111,395.1,17.1,1.9,7,True,196.0,84.7,184.1,196.2,78.8
2025-10-28T10:55:11.249233,2.08,1728,17.5,90.2,187.5,84.8,61.9,74.0,17.5,-0.9,2.0,0.369,0.033,0.143,0.371,0.9,0.03,-5.36,33.955551,-117.39611,396.3,17.2,1.9,7,True,195.2,87.7,191.3,198.9,77.3
2025-10-28T10:55:11.249271,2.1,1731,17.7,94.9,183.8,83.1,64.1,77.8,23.3,1.9,-1.7,0.375,0.013,-0.131,0.375,0.45,0.16,1.09,33.955551,-117.396108,397.5,17.7,1.9,7,True,194.4,84.1,189.2,197.3,77.6
2025-10-28T10:55:11.249306,2.12,1760,17.9,96.4,183.4,87.2,61.0,79.1,19.5,2.8,-0.4,0.408,-0.036,-0.123,0.41,0.59,0.24,6.23,33.955551,-117.396106,393.3,19.2,2.0,11,True,194.8,86.9,188.3,197.1,77.0
2025-10-28T10:55:11.249420,2.14,1765,18.1,93.1,186.4,82.6,63.3,76.4,23.2,2.8,0.3,0.405,-0.015,0.086,0.405,1.06,0.03,-0.04,33.955551,-117.396105,395.6,17.2,2.0,10,True,193.5,85.0,183.5,200.7,77.1
2025-10-28T10:55:11.249472,2.16,1710,18.2,95.1,185.6,88.3,64.4,78.0,17.2,3.1,1.4,0.404,-0.035,-0.151,0.405,0.61,-0.01,6.26,33.955551,-117.396103,393.3,19.0,2.1,7,True,193.5,85.4,182.5,200.9,78.6
2025-10-28T10:55:11.249511,2.18,1744,18.4,95.7,183.4,84.2,61.3,78.4,19.0,-1.9,-1.0,0.375,-0.001,0.164,0.375,0.77,-0.33,-7.07,33.955551,-117.396101,396.9,17.0,2.1,10,True,197.0,86.5,182.1,197.3,77.0
2025-10-28T10:55:11.249549,2.2,1769,18.6,92.6,186.8,82.5,62.8,75.9,17.3,2.8,0.8,0.356,0.045,0.116,0.359,0.25,-0.18,5.47,33.955551,-117.396099,397.3,19.2,2.1,7,True,195.4,83.6,186.8,196.5,78.4
2025-10-28T10:55:11.249586,2.22,1774,18.7,97.4,185.1,83.8,62.5,79.8,23.0,-0.3,-0.6,0.408,0.017,0.078,0.408,0.78,-0.29,-3.38,33.955551,-117.396097,397.6,20.0,2.2,10,True,194.0,86.7,183.9,198.4,77.7
2025-10-28T10:55:11.249624,2.24,1753,18.9,97.3,186.7,88.0,62.1,79.8,17.8,-0.0,0.4,0.358,0.018,0.13,0.359,0.43,0.24,1.92,33.955551,-117.396096,394.6,19.8,2.2,8,True,195.2,87.6,181.9,195.4,77.9
2025-10-28T10:55:11.249660,2.26,1764,19.1,96.8,184.4,83.2,59.9,79.4,21.7,2.2,-0.3,0.405,0.047,-0.021,0.408,1.04,-0.14,1.91,33.955551,-117.396094,393.8,18.8,2.2,11,True,198.2,83.7,187.8,195.6,78.7
2025-10-28T10:55:11.249698,2.28,1826,19.3,93.5,188.1,88.0,63.8,76.6,23.7,3.5,-0.0,0.403,0.033,-0.004,0.405,0.55,0.49,0.11,33.95555,-117.396092,395.5,18.3,2.3,10,True,194.4,86.4,183.1,196.1,77.5
2025-10-28T10:55:11.249736,2.3,1761,19.4,98.2,185.2,84.7,62.0,80.5,23.8,-3.4,-1.8,0.363,-0.031,0.141,0.364,0.53,-0.21,-3.72,33.95555,-117.39609,392.5,20.1,2.3,11,True,196.6,85.8,181.8,197.9,77.2
2025-10-28T10:55:11.249775,2.32,1785,19.6,95.2,187.8,83.5,64.2,78.1,24.8,-0.7,-1.4,0.403,0.032,0.138,0.405,0.38,-0.14,2.91,33.95555,-117.396088,397.3,18.7,2.4,8,True,198.0,88.3,187.8,200.9,78.4
2025-10-28T10:55:11.249809,2.34,1868,19.8,97.7,185.6,84.9,64.0,80.1,21.4,1.1,0.5,0.385,0.039,0.054,0.387,0.47,-0.14,0.25,33.95555,-117.396086,395.7,19.8,2.4,11,True,195.9,88.1,187.3,197.9,77.3
2025-10-28T10:55:11.249846,2.36,1834,19.9,96.7,184.8,86.6,64.7,79.3,15.7,-3.1,-1.9,0.357,-0.003,-0.008,0.357,0.41,-0.37,3.95,33.95555,-117.396084,395.5,19.7,2.4,9,True,194.1,88.0,184.0,195.5,78.5
2025-10-28T10:55:11.249881,2.38,1861,20.1,94.9,185.4,82.6,62.0,77.8,24.7,-1.1,-1.2,0.38,0.03,0.067,0.381,0.89,0.03,-2.92,33.95555,-117.396082,392.1,18.7,2.5,11,True,196.5,87.5,186.2,200.6,78.0
2025-10-28T10:55:11.249917,2.4,1852,20.2,95.7,183.9,88.4,62.9,78.5,18.0,0.2,-0.6,0.35,0.008,0.148,0.351,0.88,-0.01,5.33,33.95555,-117.39608,394.8,21.5,2.5,8,True,193.5,83.8,188.0,198.5,77.5
2025-10-28T10:55:11.249954,2.42,1832,20.4,92.4,188.0,83.0,63.7,75.8,16.7,-2.4,0.3,0.369,0.037,-0.069,0.371,0.67,0.01,-4.22,33.95555,-117.396078,396.6,19.5,2.6,7,True,193.7,83.7,187.4,200.4,78.4
2025-10-28T10:55:11.249993,2.44,1876,20.6,98.7,183.7,84.5,62.1,80.9,16.8,2.7,0.5,0.359,0.007,0.068,0.359,0.64,-0.39,6.41,33.95555,-117.396076,397.5,20.4,2.6,7,True,194.3,85.4,186.1,199.6,78.6
2025-10-28T10:55:11.250029,2.46,1883,20.7,98.7,184.7,84.6,62.6,80.9,24.1,-0.6,-0.3,0.404,0.022,-0.147,0.405,0.72,0.43,5.09,33.95555,-117.396074,392.2,19.3,2.7,9,True,194.5,84.9,189.9,196.9,78.3
2025-10-28T10:55:11.250064,2.48,1872,20.9,97.6,183.4,88.4,62.5,80.1,22.8,-0.2,0.7,0.383,-0.026,-0.141,0.384,0.4,0.12,2.86,33.95555,-117.396072,393.8,21.8,2.7,7,True,197.7,85.1,181.9,197.2,77.4
2025-10-28T10:55:11.250102,2.5,1903,21.1,99.1,185.7,82.8,63.9,81.3,15.5,-0.4,0.6,0.387,-0.003,-0.116,0.387,0.5,0.02,2.91,33.95555,-117.39607,395.9,20.3,2.7,7,True,196.4,87.7,189.0,200.8,77.1
2025-10-28T10:55:11.250142,2.52,1910,21.2,96.3,185.1,86.2,64.7,78.9,23.0,1.5,-0.3,0.382,-0.008,-0.083,0.382,0.36,-0.18,-0.26,33.95555,-117.396068,396.1,20.6,2.8,9,True,193.4,84.9,186.8,195.4,78.7
2025-10-28T10:55:11.250177,2.54,1887,21.4,94.8,184.5,86.2,65.7,77.8,18.8,0.3,1.8,0.379,0.033,0.122,0.38,1.05,0.37,-3.64,33.95555,-117.396066,393.7,21.0,2.8,11,True,196.7,88.1,185.4,198.7,78.4
2025-10-28T10:55:11.250212,2.56,1958,21.6,97.9,183.4,82.8,67.0,80.3,16.7,3.1,-0.3,0.355,-0.045,0.09,0.358,0.87,0.26,-0.75,33.955549,-117.396064,395.4,20.2,2.9,9,True,196.0,84.9,184.1,199.7,77.9
2025-10-28T10:55:11.250253,2.58,1960,21.7,99.7,184.5,83.2,62.3,81.8,25.2,-0.3,-0.8,0.408,0.049,-0.043,0.411,0.45,0.5,0.4,33.955549,-117.396062,393.1,20.7,2.9,8,True,197.1,84.4,182.6,201.3,78.6
2025-10-28T10:55:11.250291,2.6,1944,21.9,99.5,188.1,83.2,64.3,81.6,23.3,2.3,2.0,0.387,0.014,-0.025,0.387,0.46,-0.33,-3.52,33.955549,-117.39606,395.7,20.6,3.0,8,True,194.5,86.7,190.9,196.5,78.2
2025-10-28T10:55:11.250365,2.62,1962,22.1,96.5,188.0,86.6,63.1,79.1,20.8,1.2,1.7,0.407,0.037,-0.05,0.409,0.92,0.23,0.06,33.955549,-117.396058,393.3,22.3,3.0,11,True,195.5,88.2,182.5,197.4,77.3
2025-10-28T10:55:11.250409,2.64,1958,22.3,92.9,185.8,86.2,66.2,76.2,17.8,1.8,-1.0,0.398,0.041,-0.116,0.4,1.08,0.22,-3.2,33.955549,-117.396055,392.9,22.3,3.1,11,True,194.4,87.1,186.0,199.7,78.6
2025-10-28T10:55:11.250446,2.66,1952,22.4,97.7,184.6,85.7,64.4,80.1,20.9,-1.9,-0.7,0.394,-0.018,-0.144,0.395,0.64,0.14,4.82,33.955549,-117.396053,395.0,23.6,3.1,7,True,195.0,86.3,182.4,200.0,77.2
2025-10-28T10:55:11.250483,2.68,1974,22.6,93.5,187.5,86.1,62.6,76.7,25.0,1.5,2.0,0.409,-0.005,0.158,0.409,0.49,-0.4,3.31,33.955549,-117.396051,392.4,21.2,3.1,7,True,197.9,86.4,184.6,195.6,77.6
2025-10-28T10:55:11.250596,2.7,1970,22.8,99.0,186.3,84.7,66.4,81.2,24.4,-2.5,0.9,0.401,0.037,0.078,0.402,1.08,0.15,-3.93,33.955549,-117.396049,394.2,22.9,3.2,11,True,196.6,88.4,184.7,199.4,78.8
2025-10-28T10:55:11.250638,2.72,2028,23.0,95.3,183.9,83.2,68.1,78.1,23.1,0.8,-0.6,0.39,-0.022,0.002,0.39,0.69,-0.31,-7.0,33.955549,-117.396047,397.0,24.4,3.2,10,True,198.3,83.7,186.0,197.3,77.5
2025-10-28T10:55:11.250675,2.74,2001,23.1,95.0,185.3,86.2,63.6,77.9,19.3,0.9,0.3,0.391,-0.001,0.094,0.391,0.73,-0.38,5.81,33.955549,-117.396044,395.8,22.1,3.3,8,True,193.5,84.7,184.4,198.2,77.4
2025-10-28T10:55:11.250710,2.76,2024,23.3,98.1,184.8,86.0,66.7,80.5,23.8,0.1,0.1,0.353,0.042,-0.119,0.356,0.7,0.23,-5.58,33.955548,-117.396042,392.8,24.3,3.3,11,True,194.3,86.6,188.7,198.4,79.0
2025-10-28T10:55:11.250749,2.78,2029,23.5,95.1,183.2,88.2,66.4,78.0,20.6,-1.2,-0.2,0.399,0.031,-0.026,0.4,0.42,-0.42,-0.48,33.955548,-117.39604,393.7,22.3,3.4,10,True,196.1,85.6,187.5,198.1,77.4
2025-10-28T10:55:11.250785,2.8,2072,23.7,97.4,184.6,85.4,66.2,79.9,23.9,-2.3,0.1,0.408,0.013,0.071,0.408,0.62,-0.29,4.82,33.955548,-117.396038,393.2,23.9,3.4,9,True,196.6,87.1,188.2,200.4,78.9
2025-10-28T10:55:11.250821,2.82,1993,23.8,96.5,186.2,87.3,65.9,79.1,20.6,2.2,0.4,0.355,-0.03,0.082,0.357,0.98,-0.09,-7.76,33.955548,-117.396035,393.6,24.6,3.5,7,True,197.2,86.7,188.3,200.6,78.3
2025-10-28T10:55:11.250856,2.84,2060,24.0,92.2,187.4,88.5,67.0,75.6,18.5,2.5,-0.6,0.367,-0.043,0.162,0.369,0.58,-0.45,-1.69,33.955548,-117.396033,394.3,23.1,3.5,11,True,195.5,86.2,191.1,196.5,78.3
2025-10-28T10:55:11.250895,2.86,2017,24.1,91.0,186.6,85.0,64.3,74.6,16.8,-0.4,1.7,0.385,0.003,0.003,0.385,0.67,-0.21,-1.81,33.955548,-117.396031,392.1,25.4,3.6,7,True,196.0,87.1,185.0,198.4,77.8
2025-10-28T10:55:11.250933,2.88,2020,24.3,91.5,186.7,84.7,67.8,75.0,17.4,2.1,-0.2,0.408,-0.034,-0.05,0.409,0.35,-0.05,5.29,33.955548,-117.396028,395.7,22.9,3.6,8,True,195.6,85.4,187.4,198.1,77.9
2025-10-28T10:55:11.250968,2.9,2043,24.5,93.9,183.6,86.4,64.4,77.0,21.6,-3.4,-1.6,0.363,-0.002,-0.076,0.363,0.47,-0.37,1.32,33.955548,-117.396026,392.5,24.8,3.7,7,True,198.4,86.6,189.4,195.6,77.2
2025-10-28T10:55:11.251003,2.92,2072,24.6,91.0,184.0,85.6,66.0,74.6,20.6,-3.1,-1.0,0.353,-0.035,0.179,0.355,0.87,0.29,-3.03,33.955547,-117.396023,396.5,26.0,3.7,9,True,195.3,84.4,191.2,195.5,78.5
2025-10-28T10:55:11.251042,2.94,2070,24.8,97.0,185.6,83.3,66.1,79.5,22.3,1.6,2.2,0.394,0.024,0.106,0.395,0.95,0.05,5.49,33.955547,-117.396021,395.8,25.6,3.8,8,True,198.3,85.4,189.4,201.3,78.9
2025-10-28T10:55:11.251080,2.96,2116,25.0,97.8,185.3,83.9,64.3,80.2,17.3,-3.0,1.9,0.354,0.021,0.149,0.354,0.37,-0.43,2.04,33.955547,-117.396019,392.1,24.0,3.8,10,True,196.1,85.9,189.2,197.3,78.6
2025-10-28T10:55:11.251119,2.98,2071,25.1,92.4,187.2,84.1,65.3,75.7,19.3,-0.5,-0.3,0.35,-0.04,0.143,0.353,0.71,0.38,1.42,33.955547,-117.396016,396.7,24.6,3.9,7,True,195.9,85.7,190.1,197.6,77.1
2025-10-28T10:55:11.251155,3.0,2152,25.3,90.2,186.2,86.1,64.1,73.9,19.6,3.2,1.2,0.374,-0.021,0.115,0.375,0.32,-0.12,-3.41,33.955547,-117.396014,393.1,24.0,3.9,9,True,194.1,88.4,183.2,196.4,77.1
2025-10-28T10:55:11.251189,3.02,2138,25.5,90.6,187.4,84.5,64.1,74.3,21.0,-1.1,-2.0,0.376,0.032,-0.024,0.377,0.4,0.39,6.63,33.955547,-117.396011,396.3,26.9,4.0,10,True,194.6,86.1,189.9,201.1,77.2
2025-10-28T10:55:11.251225,3.04,2112,25.6,91.7,188.1,86.7,68.4,75.2,17.1,-2.3,1.6,0.379,-0.005,0.171,0.379,0.55,0.34,-5.49,33.955547,-117.396009,396.1,26.9,4.0,8,True,193.7,87.3,187.7,198.8,77.1
2025-10-28T10:55:11.251262,3.06,2117,25.8,98.2,187.1,83.5,65.9,80.5,23.5,-3.0,-1.4,0.359,-0.035,0.014,0.36,0.53,0.3,-3.3,33.955547,-117.396006,394.6,24.8,4.1,8,True,198.4,83.6,190.6,195.4,77.0
2025-10-28T10:55:11.251300,3.08,2150,26.0,95.7,185.3,86.9,64.7,78.5,18.5,1.0,-1.3,0.405,0.01,0.179,0.405,1.12,0.45,-3.81,33.955546,-117.396004,394.6,24.8,4.1,10,True,197.9,88.0,190.5,198.7,78.1
2025-10-28T10:55:11.251335,3.1,2128,26.1,93.6,183.9,84.2,67.8,76.7,22.4,0.5,1.4,0.394,-0.007,0.137,0.394,0.45,-0.15,-7.29,33.955546,-117.396001,393.8,27.3,4.2,11,True,197.2,88.5,188.2,201.3,77.1
2025-10-28T10:55:11.251369,3.12,2129,26.3,99.9,183.9,85.2,65.8,81.9,15.2,-1.4,-1.2,0.392,-0.045,0.062,0.395,0.62,0.37,3.86,33.955546,-117.395999,394.2,27.2,4.3,7,True,197.0,86.2,185.8,195.7,79.0
2025-10-28T10:55:11.251412,3.14,2208,26.5,99.4,183.9,88.5,65.0,81.5,19.8,0.2,2.1,0.401,-0.027,0.166,0.402,0.9,-0.26,-5.25,33.955546,-117.395996,396.1,27.3,4.3,10,True,194.5,86.9,190.6,198.6,77.4
2025-10-28T10:55:11.251447,3.16,2228,26.7,99.1,186.1,87.5,66.3,81.3,21.2,-0.5,-0.4,0.395,0.014,0.006,0.395,0.55,0.16,-1.25,33.955546,-117.395994,396.5,25.8,4.4,9,True,196.7,84.7,189.8,199.0,78.6
2025-10-28T10:55:11.251482,3.18,2196,26.8,94.8,186.7,88.1,64.1,77.7,23.8,1.3,-0.3,0.351,-0.013,-0.105,0.352,0.55,0.2,-2.14,33.955546,-117.395991,395.0,27.2,4.4,9,True,195.3,83.9,190.2,196.6,77.3
2025-10-28T10:55:11.251516,3.2,2248,27.0,93.2,185.0,88.4,64.9,76.4,16.6,2.6,-1.4,0.401,0.023,-0.143,0.402,0.95,0.16,0.9,33.955545,-117.395988,393.4,27.1,4.5,7,True,197.2,86.8,182.3,197.6,78.9
2025-10-28T10:55:11.251553,3.22,2225,27.1,93.2,183.4,87.7,67.9,76.4,15.7,-0.5,1.8,0.368,-0.046,-0.111,0.371,0.55,-0.43,-6.19,33.955545,-117.395986,397.8,27.2,4.5,8,True,194.7,86.6,186.8,198.1,77.2
2025-10-28T10:55:11.251591,3.24,2171,27.3,96.4,185.3,83.4,66.7,79.0,23.0,-0.4,-0.3,0.403,0.035,0.169,0.404,1.06,0.12,6.87,33.955545,-117.395983,397.8,27.0,4.6,9,True,194.3,85.0,185.5,196.5,77.8
2025-10-28T10:55:11.251627,3.26,2234,27.5,96.9,184.6,83.0,67.8,79.5,19.9,1.1,2.2,0.371,-0.01,0.156,0.372,0.48,-0.39,0.17,33.955545,-117.39598,395.7,27.3,4.6,11,True,197.4,85.8,191.8,198.1,77.2
2025-10-28T10:55:11.251662,3.28,2205,27.7,94.5,188.1,85.0,69.5,77.5,16.7,-2.3,-2.0,0.4,-0.033,-0.174,0.402,0.99,0.27,-0.88,33.955545,-117.395978,393.6,28.6,4.7,9,True,195.7,88.0,191.4,200.1,78.3
2025-10-28T10:55:11.251699,3.3,2220,27.8,96.7,186.6,85.5,67.0,79.3,15.3,1.7,-0.3,0.374,-0.047,-0.144,0.377,0.36,0.21,-1.61,33.955545,-117.395975,394.1,26.8,4.8,10,True,194.5,88.2,189.6,195.5,77.4
2025-10-28T10:55:11.251734,3.32,2243,28.0,99.6,188.2,85.7,66.0,81.7,20.0,-3.0,-0.3,0.405,-0.017,-0.003,0.405,0.92,-0.53,-5.32,33.955544,-117.395972,397.3,28.9,4.8,7,True,196.0,88.6,189.6,197.4,77.5
2025-10-28T10:55:11.251844,3.34,2300,28.2,91.6,187.7,87.0,67.4,75.1,25.7,-0.4,0.9,0.404,0.032,0.098,0.405,0.81,0.15,-7.87,33.955544,-117.39597,394.3,28.6,4.9,8,True,198.3,84.7,183.9,196.9,78.6
2025-10-28T10:55:11.251886,3.36,2270,28.3,90.1,183.8,87.0,65.5,73.9,18.3,3.4,0.9,0.369,-0.035,-0.166,0.37,0.61,0.27,-2.39,33.955544,-117.395967,392.7,28.2,4.9,11,True,197.0,84.0,190.9,200.7,78.1
2025-10-28T10:55:11.251923,3.38,2301,28.5,93.1,185.0,83.3,68.5,76.4,20.1,3.0,-0.3,0.403,-0.022,-0.119,0.404,0.38,-0.51,0.87,33.955544,-117.395964,394.4,27.5,5.0,10,True,194.9,83.8,191.9,197.3,77.1
2025-10-28T10:55:11.251960,3.4,2252,28.7,98.2,187.1,87.4,67.5,80.5,16.5,-1.9,-0.0,0.352,-0.019,0.132,0.352,0.27,0.29,-4.46,33.955544,-117.395961,393.8,30.1,5.0,8,True,197.6,85.8,182.7,197.9,78.9
2025-10-28T10:55:11.251999,3.42,2319,28.8,97.1,183.7,82.9,68.7,79.6,22.4,1.2,-0.5,0.365,-0.004,0.012,0.365,0.93,-0.43,-4.87,33.955543,-117.395959,395.1,28.6,5.1,9,True,197.3,84.5,186.3,196.9,77.4
2025-10-28T10:55:11.252037,3.44,2271,29.0,91.1,184.8,82.7,70.1,74.7,23.6,-3.3,-0.4,0.385,-0.048,0.105,0.388,0.51,-0.21,0.41,33.955543,-117.395956,392.4,29.5,5.2,9,True,196.3,87.2,190.2,201.3,77.7
2025-10-28T10:55:11.252072,3.46,2299,29.2,98.1,187.5,84.6,67.4,80.4,19.3,2.0,-0.7,0.352,0.002,0.124,0.352,0.83,0.33,7.86,33.955543,-117.395953,393.4,29.5,5.2,7,True,194.4,88.2,191.1,200.5,77.5
2025-10-28T10:55:11.252107,3.48,2324,29.3,92.6,188.1,83.6,70.9,75.9,17.3,0.7,0.4,0.373,-0.038,0.13,0.375,0.46,0.01,5.03,33.955543,-117.39595,392.6,30.7,5.3,11,True,194.9,85.7,189.3,197.2,78.5
2025-10-28T10:55:11.252144,3.5,2285,29.5,91.9,187.7,84.5,66.9,75.4,23.7,-0.2,1.6,0.408,0.003,0.008,0.408,1.12,0.02,2.07,33.955542,-117.395947,397.3,29.0,5.3,11,True,197.2,86.2,191.6,196.0,77.8
2025-10-28T10:55:11.252189,3.52,2385,29.7,96.5,187.7,83.6,68.9,79.1,18.1,-3.3,1.7,0.352,0.015,-0.126,0.353,0.53,0.33,-5.46,33.955542,-117.395944,397.8,31.0,5.4,11,True,194.9,83.9,185.1,199.3,78.0
2025-10-28T10:55:11.252225,3.54,2394,29.8,92.8,184.5,84.9,67.0,76.1,15.2,-3.2,1.8,0.377,0.001,-0.072,0.377,1.07,-0.18,0.4,33.955542,-117.395941,394.6,31.3,5.5,11,True,193.6,87.8,186.1,195.6,78.6
2025-10-28T10:55:11.252261,3.56,2325,30.0,97.1,185.8,84.7,66.8,79.6,20.9,-2.5,-0.2,0.352,-0.035,0.113,0.354,0.98,-0.18,7.09,33.955542,-117.395939,394.2,28.7,5.5,9,True,197.4,85.2,190.6,196.7,78.2
2025-10-28T10:55:11.252298,3.58,2401,30.1,90.3,186.8,85.4,71.6,74.0,26.0,0.7,0.8,0.376,0.033,-0.087,0.377,0.5,0.54,-2.79,33.955542,-117.395936,396.6,29.1,5.6,10,True,193.9,85.4,191.3,196.6,77.8
2025-10-28T10:55:11.252371,3.6,2339,30.3,98.3,184.6,87.5,70.4,80.6,25.2,-2.0,1.6,0.396,-0.024,-0.179,0.397,1.03,-0.44,7.89,33.955541,-117.395933,392.6,29.1,5.6,8,True,196.1,86.1,187.9,195.6,78.1
2025-10-28T10:55:11.252413,3.62,2379,30.5,93.8,188.1,88.0,68.7,76.9,22.7,-3.3,-0.1,0.38,0.026,-0.162,0.381,0.31,-0.27,-2.43,33.955541,-117.39593,392.9,30.7,5.7,11,True,198.0,84.1,186.6,201.1,77.1
2025-10-28T10:55:11.252460,3.64,2409,30.7,98.3,186.5,86.8,67.2,80.6,21.1,2.1,2.2,0.37,0.032,0.081,0.371,0.66,-0.01,4.25,33.955541,-117.395927,395.2,30.5,5.8,10,True,197.8,85.0,190.1,200.7,77.7
2025-10-28T10:55:11.252526,3.66,2375,30.8,92.2,186.2,83.3,68.1,75.6,24.9,2.9,-1.0,0.391,-0.028,0.157,0.392,1.05,0.33,-2.98,33.955541,-117.395924,396.5,32.0,5.8,11,True,195.4,85.2,184.4,199.5,77.5
2025-10-28T10:55:11.252637,3.68,2416,31.0,91.9,186.1,87.8,67.2,75.4,15.2,0.5,-0.6,0.385,-0.011,0.013,0.385,0.55,-0.37,-2.1,33.95554,-117.395921,395.4,31.5,5.9,8,True,196.0,85.6,190.7,197.0,77.4
2025-10-28T10:55:11.252717,3.7,2451,31.2,91.1,186.6,83.4,68.4,74.7,24.8,0.1,-0.1,0.369,-0.007,-0.025,0.369,0.96,-0.32,-2.95,33.95554,-117.395918,395.9,32.3,6.0,11,True,197.8,85.3,182.7,200.1,77.4
2025-10-28T10:55:11.252796,3.72,2440,31.3,96.4,187.3,87.2,67.8,79.1,21.6,2.5,-1.9,0.407,0.048,-0.032,0.41,0.53,-0.0,-6.11,33.95554,-117.395915,397.5,30.5,6.0,10,True,197.6,87.7,190.9,199.8,77.7
2025-10-28T10:55:11.252862,3.74,2415,31.5,92.3,186.0,86.7,71.8,75.7,24.7,3.0,0.9,0.386,0.003,0.066,0.386,1.0,0.14,6.72,33.95554,-117.395912,394.9,30.2,6.1,11,True,198.2,86.5,191.8,198.3,78.4
2025-10-28T10:55:11.252949,3.76,2397,31.7,90.1,185.6,87.6,70.1,73.9,23.6,3.5,1.3,0.351,-0.018,-0.072,0.351,0.95,0.32,-5.55,33.955539,-117.395909,394.9,31.6,6.2,9,True,197.9,85.2,184.9,196.3,77.7
2025-10-28T10:55:11.253021,3.78,2413,31.8,94.8,186.9,82.8,69.4,77.7,21.4,2.4,-0.4,0.363,0.013,-0.004,0.363,0.62,0.31,5.14,33.955539,-117.395906,393.3,31.6,6.2,10,True,194.7,84.6,187.1,195.6,78.0
2025-10-28T10:55:11.253088,3.8,2466,32.0,97.3,184.7,84.3,68.8,79.8,24.1,2.1,2.1,0.386,-0.041,-0.114,0.388,0.48,-0.41,-7.42,33.955539,-117.395903,397.1,33.2,6.3,11,True,193.9,87.7,189.7,201.0,78.3
2025-10-28T10:55:11.253153,3.82,2475,32.2,94.2,186.5,86.8,67.5,77.2,20.3,3.4,2.2,0.387,0.006,-0.054,0.387,0.51,0.08,6.27,33.955538,-117.395899,394.2,33.2,6.4,11,True,193.9,84.1,187.1,200.2,79.0
2025-10-28T10:55:11.253217,3.84,2475,32.3,91.7,184.0,86.7,71.7,75.2,21.7,2.3,-0.8,0.352,-0.013,-0.051,0.352,0.64,-0.09,0.94,33.955538,-117.395896,396.9,31.2,6.4,10,True,195.5,86.8,185.2,196.1,78.4
2025-10-28T10:55:11.253282,3.86,2503,32.5,92.5,186.2,87.3,67.4,75.8,15.8,2.6,0.7,0.389,-0.016,-0.056,0.39,0.68,-0.12,-4.54,33.955538,-117.395893,397.6,31.2,6.5,9,True,197.3,86.6,184.6,196.0,78.4
2025-10-28T10:55:11.253442,3.88,2509,32.6,95.9,185.9,86.1,69.8,78.6,22.1,-2.9,-1.7,0.369,-0.024,-0.17,0.369,0.99,-0.09,5.94,33.955538,-117.39589,392.8,33.9,6.6,7,True,193.8,86.3,187.2,198.6,77.8
2025-10-28T10:55:11.253511,3.9,2541,32.8,97.5,188.1,83.6,69.0,80.0,15.7,2.3,-2.0,0.381,0.01,0.042,0.381,0.76,0.31,0.79,33.955537,-117.395887,397.4,32.4,6.6,9,True,198.1,87.5,191.9,200.9,78.5
2025-10-28T10:55:11.253571,3.92,2467,33.0,97.6,183.7,85.1,68.3,80.0,24.9,-1.7,1.5,0.352,-0.013,0.126,0.352,0.63,-0.01,3.71,33.955537,-117.395884,392.0,32.3,6.7,10,True,198.5,88.3,186.3,201.3,77.6
2025-10-28T10:55:11.253630,3.94,2566,33.1,95.2,185.4,85.6,71.6,78.1,25.8,3.1,0.3,0.409,0.033,-0.11,0.411,0.74,-0.04,3.52,33.955537,-117.395881,396.6,32.4,6.8,8,True,196.1,84.9,188.1,198.8,78.9
2025-10-28T10:55:11.253690,3.96,2547,33.3,91.5,186.5,83.9,67.6,75.0,17.5,-3.1,-0.9,0.374,0.045,-0.07,0.376,1.02,0.09,2.94,33.955536,-117.395877,393.8,33.1,6.8,11,True,197.7,86.4,186.1,197.0,77.9
2025-10-28T10:55:11.253750,3.98,2582,33.5,98.5,188.1,86.0,72.8,80.8,21.0,-2.9,0.9,0.389,0.032,-0.133,0.39,0.58,0.08,-4.69,33.955536,-117.395874,394.7,33.9,6.9,7,True,193.9,85.2,187.6,198.4,77.3
2025-10-28T10:55:11.253814,4.0,2571,33.6,92.0,183.9,87.1,72.3,75.4,23.5,2.4,-2.0,0.361,0.049,-0.068,0.364,0.47,0.09,-0.54,33.955536,-117.395871,397.4,32.8,7.0,9,True,196.3,85.4,188.9,199.5,78.3
2025-10-28T10:55:11.253882,4.02,2530,33.8,91.2,184.3,84.5,69.8,74.8,22.0,0.6,0.9,0.383,-0.009,-0.087,0.383,0.36,0.31,-1.8,33.955535,-117.395868,395.5,32.9,7.0,10,True,194.8,84.8,191.0,199.9,77.3
2025-10-28T10:55:11.253947,4.04,2609,34.0,92.8,186.0,85.1,72.3,76.1,19.7,-2.7,1.3,0.395,-0.008,0.145,0.395,0.89,0.36,-4.32,33.955535,-117.395864,392.6,33.6,7.1,7,True,197.4,85.6,185.3,198.3,78.1
2025-10-28T10:55:11.254015,4.06,2613,34.2,91.1,187.1,85.4,73.1,74.7,25.9,-3.1,-0.3,0.409,0.008,0.013,0.409,0.68,0.24,3.11,33.955535,-117.395861,395.5,33.7,7.2,11,True,196.1,88.5,184.0,195.9,77.6
2025-10-28T10:55:11.254083,4.08,2606,34.3,91.5,187.3,85.8,72.7,75.0,19.5,-1.2,0.7,0.404,-0.016,0.175,0.405,0.79,-0.05,5.53,33.955534,-117.395858,393.3,34.9,7.2,10,True,196.3,85.0,188.6,199.6,77.3
2025-10-28T10:55:11.254146,4.1,2552,34.5,95.9,186.5,86.1,67.9,78.7,16.1,-0.3,1.9,0.385,0.033,-0.029,0.386,0.88,0.31,0.23,33.955534,-117.395854,396.6,35.0,7.3,7,True,198.4,86.8,189.5,200.9,77.7
2025-10-28T10:55:11.254210,4.12,2636,34.7,90.1,183.5,87.0,71.6,73.8,19.8,2.2,-1.3,0.394,0.018,0.128,0.395,0.93,0.44,6.92,33.955534,-117.395851,394.3,35.0,7.4,9,True,198.5,86.0,189.3,200.5,78.9
2025-10-28T10:55:11.254261,4.14,2596,34.9,97.5,186.8,85.6,68.7,80.0,22.7,0.4,-0.5,0.388,0.011,0.063,0.388,0.97,-0.36,1.98,33.955533,-117.395848,395.2,35.6,7.5,8,True,194.1,87.0,184.2,198.9,78.8
2025-10-28T10:55:11.254300,4.16,2569,35.0,92.7,183.5,83.2,72.9,76.1,16.8,-0.9,1.1,0.361,0.028,0.032,0.362,0.42,-0.04,-2.21,33.955533,-117.395844,397.4,36.4,7.5,11,True,198.4,86.4,188.4,195.8,78.1
2025-10-28T10:55:11.254396,4.18,2652,35.2,98.4,183.4,83.2,74.4,80.7,24.0,-1.0,0.1,0.385,0.037,-0.014,0.387,0.42,0.47,4.71,33.955532,-117.395841,396.7,35.7,7.6,9,True,195.1,87.8,188.8,200.1,77.5
2025-10-28T10:55:11.254470,4.2,2587,35.4,92.0,184.9,85.5,68.7,75.4,16.2,-3.4,1.6,0.405,-0.006,0.021,0.405,0.44,-0.23,1.3,33.955532,-117.395838,393.2,35.3,7.7,10,True,196.5,87.9,183.9,196.5,77.5
2025-10-28T10:55:11.254539,4.22,2631,35.5,90.0,183.9,82.8,73.5,73.8,17.6,0.8,-1.8,0.394,0.004,0.024,0.394,0.66,-0.27,-6.75,33.955532,-117.395834,396.8,35.2,7.7,7,True,198.4,87.7,186.5,198.6,78.7
2025-10-28T10:55:11.254609,4.24,2690,35.7,90.7,184.5,85.6,73.4,74.4,15.6,-2.0,-1.4,0.355,-0.045,0.019,0.357,0.49,0.21,4.71,33.955531,-117.395831,396.3,35.3,7.8,9,True,198.6,88.0,182.3,200.6,78.0
2025-10-28T10:55:11.254675,4.26,2646,35.9,95.4,186.7,85.5,72.7,78.2,25.4,-2.2,-1.8,0.383,0.043,0.077,0.386,0.36,0.17,6.23,33.955531,-117.395827,397.4,37.3,7.9,11,True,196.3,87.1,186.5,196.3,78.9
2025-10-28T10:55:11.254742,4.28,2646,36.0,99.2,183.9,85.5,73.6,81.4,19.1,3.3,1.5,0.371,0.005,-0.107,0.371,0.59,0.16,0.87,33.955531,-117.395824,396.1,37.1,8.0,8,True,196.2,85.5,187.2,195.7,78.1
2025-10-28T10:55:11.254807,4.3,2653,36.2,90.3,184.4,84.5,69.6,74.1,20.9,0.8,-1.4,0.375,-0.046,0.139,0.377,0.44,0.08,-3.75,33.95553,-117.39582,397.7,36.1,8.0,8,True,194.8,85.1,183.7,199.5,78.2
2025-10-28T10:55:11.255145,4.32,2688,36.4,97.7,186.0,87.0,69.5,80.1,22.1,1.7,1.2,0.37,-0.014,-0.016,0.37,0.64,-0.44,0.29,33.95553,-117.395817,392.2,35.4,8.1,8,True,195.9,87.8,189.1,200.1,78.4
2025-10-28T10:55:11.255299,4.34,2737,36.5,94.9,184.1,86.3,72.7,77.8,25.5,1.0,0.7,0.385,-0.013,-0.069,0.385,0.57,0.47,-7.87,33.955529,-117.395813,394.9,37.7,8.2,8,True,194.9,85.7,190.5,198.4,77.9
2025-10-28T10:55:11.255372,4.36,2747,36.7,94.4,187.1,84.7,70.8,77.4,20.5,0.3,-1.5,0.36,-0.013,-0.136,0.36,0.88,-0.02,-1.29,33.955529,-117.39581,397.1,35.4,8.3,10,True,197.1,87.1,188.5,200.8,78.5
2025-10-28T10:55:11.255439,4.38,2663,36.9,92.2,183.7,87.7,70.7,75.6,24.8,3.4,1.5,0.407,0.032,0.066,0.408,0.62,-0.35,-4.39,33.955528,-117.395806,393.8,38.3,8.3,9,True,196.3,85.5,188.0,200.3,77.5
2025-10-28T10:55:11.255502,4.4,2758,37.0,99.9,187.1,85.9,73.0,82.0,20.5,2.0,0.6,0.359,-0.036,0.058,0.361,0.35,-0.34,-5.31,33.955528,-117.395803,397.0,37.7,8.4,8,True,193.7,88.1,188.4,199.9,77.9
2025-10-28T10:55:11.255569,4.42,2756,37.2,97.0,186.8,86.7,74.7,79.5,19.4,-2.3,-0.7,0.367,0.008,0.159,0.367,0.31,0.25,-2.32,33.955528,-117.395799,394.5,37.2,8.5,10,True,195.7,86.5,186.1,200.6,78.8
2025-10-28T10:55:11.255638,4.44,2772,37.3,94.0,184.4,87.0,70.9,77.0,23.2,-3.0,-2.1,0.383,0.031,0.131,0.385,0.86,-0.14,-4.77,33.955527,-117.395795,396.2,36.7,8.6,8,True,196.8,87.6,185.1,201.3,77.3
2025-10-28T10:55:11.255986,4.46,2710,37.5,97.2,185.2,85.6,71.4,79.7,17.0,1.2,-0.3,0.396,-0.047,0.109,0.399,0.72,-0.46,0.42,33.955527,-117.395792,392.9,38.8,8.6,11,True,193.7,87.3,191.0,199.0,77.0
2025-10-28T10:55:11.256060,4.48,2736,37.7,96.3,184.6,84.7,74.8,78.9,18.4,3.3,-0.7,0.381,-0.042,-0.153,0.383,0.33,-0.07,-1.58,33.955526,-117.395788,395.2,38.4,8.7,9,True,194.5,84.5,185.7,197.5,78.2
2025-10-28T10:55:11.256125,4.5,2788,37.8,98.2,185.9,83.7,71.0,80.5,16.2,2.7,0.1,0.356,-0.016,-0.063,0.357,0.61,-0.14,0.67,33.955526,-117.395785,397.4,38.9,8.8,11,True,194.5,84.8,184.1,199.7,79.0
2025-10-28T10:55:11.256313,4.52,2740,38.0,93.6,186.4,88.0,75.2,76.8,16.1,-2.8,2.2,0.365,-0.035,0.162,0.367,0.56,0.35,-0.68,33.955525,-117.395781,392.5,38.2,8.9,9,True,197.6,88.6,189.1,196.9,78.8
2025-10-28T10:55:11.256402,4.54,2734,38.2,98.8,183.3,87.8,69.6,81.0,18.0,2.4,2.0,0.357,-0.008,0.127,0.357,0.55,-0.45,-6.85,33.955525,-117.395777,394.9,39.1,9.0,8,True,195.8,88.7,183.9,200.7,77.9
2025-10-28T10:55:11.256480,4.56,2821,38.3,92.9,184.5,85.0,76.0,76.2,18.9,3.0,-0.3,0.403,-0.027,0.148,0.404,0.58,0.31,4.77,33.955524,-117.395774,394.2,38.6,9.0,8,True,197.5,88.4,187.2,196.2,77.1
2025-10-28T10:55:11.256556,4.58,2798,38.5,99.0,186.0,84.3,71.0,81.2,21.2,-2.0,-1.5,0.391,0.046,0.024,0.394,0.46,0.52,-6.63,33.955524,-117.39577,397.9,38.1,9.1,11,True,197.7,87.5,188.9,196.2,78.4
2025-10-28T10:55:11.256621,4.6,2770,38.7,93.9,185.5,85.5,72.1,77.0,21.8,-0.3,-0.0,0.371,-0.035,-0.158,0.373,0.63,-0.25,1.42,33.955523,-117.395766,394.4,39.8,9.2,7,True,195.9,85.6,184.5,199.5,78.8
2025-10-28T10:55:11.256687,4.62,2778,38.8,96.8,185.8,88.5,71.2,79.4,22.0,1.0,-0.1,0.376,0.033,0.079,0.378,0.34,-0.21,-2.94,33.955523,-117.395763,392.9,38.8,9.3,11,True,197.0,84.7,183.8,199.6,78.6
2025-10-28T10:55:11.256754,4.64,2847,39.0,98.2,185.4,87.1,73.2,80.5,17.9,-1.4,1.8,0.367,-0.022,-0.082,0.368,0.42,-0.06,-4.21,33.955522,-117.395759,394.8,38.2,9.4,9,True,196.2,87.6,188.1,197.4,77.1
2025-10-28T10:55:11.256822,4.66,2783,39.2,99.1,185.8,83.9,75.6,81.2,15.5,-0.2,-1.3,0.409,-0.042,0.118,0.412,1.07,0.32,2.79,33.955522,-117.395755,397.0,38.9,9.4,9,True,196.9,84.7,183.6,198.0,77.3
2025-10-28T10:55:11.256888,4.68,2871,39.3,99.5,187.2,88.6,72.5,81.6,21.4,0.7,0.3,0.351,0.005,-0.03,0.351,0.91,-0.45,-3.81,33.955521,-117.395751,395.9,38.3,9.5,7,True,193.8,86.8,190.8,200.8,78.7
2025-10-28T10:55:11.256998,4.7,2846,39.5,94.5,183.7,86.3,72.2,77.5,18.8,0.4,-0.5,0.383,0.041,0.158,0.385,0.97,0.09,-2.69,33.955521,-117.395747,395.7,38.8,9.6,10,True,197.2,86.0,189.5,199.7,77.5
2025-10-28T10:55:11.257087,4.72,2885,39.7,94.2,185.4,86.3,76.8,77.3,20.2,-2.4,-1.3,0.404,-0.014,-0.15,0.405,0.74,-0.26,0.8,33.95552,-117.395744,392.6,39.5,9.7,10,True,195.8,86.9,182.7,198.9,78.8
2025-10-28T10:55:11.257151,4.74,2882,39.8,97.0,185.9,87.9,70.8,79.5,21.7,0.9,1.9,0.362,0.032,-0.075,0.363,0.47,0.41,-6.36,33.95552,-117.39574,393.8,40.2,9.8,8,True,195.0,86.9,190.7,200.6,77.0
2025-10-28T10:55:11.257214,4.76,2904,40.0,93.0,186.3,83.4,73.9,76.3,15.5,3.4,0.0,0.394,-0.036,-0.099,0.396,0.4,0.04,7.23,33.955519,-117.395736,397.3,39.0,9.8,10,True,197.9,87.9,184.4,198.3,77.8
2025-10-28T10:55:11.257293,4.78,2903,40.2,96.9,183.8,83.7,76.5,79.4,21.1,2.2,0.2,0.402,-0.044,0.003,0.405,0.88,0.08,5.39,33.955519,-117.395732,393.8,41.3,9.9,7,True,198.4,88.4,186.6,201.5,77.3
2025-10-28T10:55:11.257395,4.8,2920,40.4,93.9,186.3,84.5,71.4,77.0,23.4,1.3,-0.0,0.408,0.011,0.027,0.408,1.12,-0.3,3.7,33.955518,-117.395728,396.1,40.2,10.0,7,True,197.7,87.7,185.7,197.1,77.4
2025-10-28T10:55:11.257487,4.82,2932,40.5,91.2,184.5,88.4,75.6,74.8,18.0,-3.0,1.8,0.36,-0.006,0.138,0.36,0.78,0.16,6.73,33.955517,-117.395724,392.0,41.9,10.1,8,True,196.6,84.2,183.6,198.2,77.2
2025-10-28T10:55:11.257559,4.84,2877,40.7,94.4,186.0,86.9,72.9,77.4,25.5,-0.3,0.8,0.403,0.013,-0.061,0.403,0.59,-0.19,-3.77,33.955517,-117.395721,397.0,40.7,10.2,8,True,197.4,88.9,187.5,197.8,78.0
2025-10-28T10:55:11.257636,4.86,2933,40.9,94.3,183.9,85.1,72.4,77.3,17.9,2.4,-1.2,0.388,0.012,-0.158,0.388,1.1,-0.31,4.6,33.955516,-117.395717,394.9,40.3,10.3,7,True,198.2,87.0,185.3,199.5,78.4
2025-10-28T10:55:11.257710,4.88,2887,41.0,94.3,183.9,84.4,74.9,77.3,18.7,2.5,0.8,0.37,0.043,0.171,0.373,0.74,0.22,-1.83,33.955516,-117.395713,392.4,40.1,10.3,9,True,197.8,84.5,187.6,197.0,77.8
2025-10-28T10:55:11.257780,4.9,2918,41.2,94.1,183.9,87.6,75.6,77.2,23.9,1.7,0.8,0.36,-0.006,-0.075,0.36,0.52,-0.07,4.62,33.955515,-117.395709,394.4,39.8,10.4,8,True,197.7,85.6,182.7,195.6,78.7
2025-10-28T10:55:11.257847,4.92,2975,41.4,95.1,184.5,87.9,73.9,78.0,19.4,0.2,-1.3,0.358,0.014,0.067,0.358,0.54,0.34,-4.38,33.955514,-117.395705,396.2,42.4,10.5,7,True,197.9,86.8,185.2,196.8,78.8
2025-10-28T10:55:11.257915,4.94,2915,41.5,97.5,183.7,86.6,73.2,79.9,19.0,1.0,0.2,0.409,0.037,-0.096,0.411,0.58,0.22,0.52,33.955514,-117.395701,392.2,42.5,10.6,11,True,194.8,84.3,184.6,196.7,77.5
2025-10-28T10:55:11.257981,4.96,2927,41.7,96.3,187.7,86.3,75.3,79.0,22.1,-3.3,1.7,0.366,-0.034,0.172,0.368,0.8,-0.22,3.71,33.955513,-117.395697,397.4,42.9,10.7,8,True,197.2,85.4,189.2,197.3,77.5
2025-10-28T10:55:11.258045,4.98,2979,41.9,91.6,186.4,85.3,72.2,75.1,16.6,2.3,-1.9,0.383,0.019,0.084,0.384,0.91,0.41,-3.71,33.955513,-117.395693,394.0,41.7,10.8,7,True,195.7,88.3,186.4,199.8,77.8
2025-10-28T10:55:11.258113,5.0,2973,42.0,92.2,187.3,83.6,74.3,75.6,26.0,1.1,-2.1,0.366,0.02,0.174,0.366,0.63,-0.03,6.44,33.955512,-117.395689,393.8,41.0,10.8,11,True,195.5,84.3,185.6,200.2,79.0
2025-10-28T10:55:11.258179,5.02,2939,42.2,90.2,187.4,87.1,73.5,74.0,19.7,-1.8,-1.3,0.395,-0.024,0.041,0.395,0.85,0.36,0.21,33.955511,-117.395685,397.0,41.8,10.9,8,True,198.0,88.0,189.2,199.9,77.5
2025-10-28T10:55:11.258244,5.04,3039,42.4,91.5,185.4,84.8,74.0,75.0,24.0,0.7,1.8,0.397,0.027,-0.12,0.398,0.45,0.11,0.59,33.955511,-117.395681,395.3,41.5,11.0,11,True,198.2,86.6,187.6,198.2,78.7
2025-10-28T10:55:11.258311,5.06,3008,42.6,91.2,186.1,86.6,74.3,74.8,19.0,1.2,-1.7,0.396,-0.018,-0.069,0.397,0.54,0.31,5.43,33.95551,-117.395677,396.7,42.3,11.1,7,True,195.7,86.4,191.7,198.5,77.7
2025-10-28T10:55:11.258486,5.08,3026,42.7,95.5,187.6,87.7,76.5,78.3,26.0,0.0,0.4,0.404,0.038,0.056,0.406,0.8,-0.33,-4.39,33.955509,-117.395673,393.7,42.8,11.2,10,True,195.4,86.7,191.0,197.9,78.8
2025-10-28T10:55:11.258575,5.1,2996,42.9,96.1,188.0,85.9,73.1,78.8,19.0,-3.5,0.4,0.354,0.025,0.123,0.355,0.83,0.25,-5.84,33.955509,-117.395669,397.9,44.1,11.3,8,True,196.0,85.7,183.8,201.3,78.0
2025-10-28T10:55:11.258644,5.12,3063,43.1,90.6,185.1,85.7,74.1,74.3,17.1,-2.8,-1.8,0.391,0.0,-0.043,0.391,0.92,0.02,-2.9,33.955508,-117.395665,392.6,42.2,11.4,10,True,195.7,86.0,183.0,196.4,77.2
2025-10-28T10:55:11.258714,5.14,3004,43.2,99.6,187.0,84.8,74.4,81.7,23.4,2.0,2.0,0.386,-0.031,-0.094,0.388,0.9,-0.09,2.83,33.955507,-117.39566,397.6,44.2,11.5,9,True,198.4,88.9,185.5,195.9,78.9
2025-10-28T10:55:11.258786,5.16,3008,43.4,99.7,186.9,87.9,72.7,81.8,23.1,3.1,-1.3,0.402,-0.023,0.029,0.403,0.92,0.14,-6.86,33.955507,-117.395656,393.7,44.2,11.6,9,True,198.1,87.7,188.4,197.6,78.4
2025-10-28T10:55:11.258848,5.18,3013,43.6,94.3,187.4,83.7,75.9,77.4,25.7,1.0,0.0,0.369,0.037,-0.044,0.37,0.33,0.35,-0.71,33.955506,-117.395652,393.5,42.1,11.6,7,True,195.1,84.1,182.9,196.1,78.0
2025-10-28T10:55:11.258912,5.2,3114,43.7,98.8,186.9,84.9,78.6,81.0,18.7,0.1,-1.2,0.389,0.011,0.01,0.389,0.59,-0.19,-7.03,33.955505,-117.395648,396.8,42.6,11.7,9,True,195.7,85.4,190.4,196.4,78.0
2025-10-28T10:55:11.259016,5.22,3111,43.9,93.1,185.0,89.0,78.6,76.4,22.8,-1.4,-1.2,0.401,0.028,0.076,0.402,0.53,-0.04,3.73,33.955504,-117.395644,396.9,42.8,11.8,9,True,197.6,86.0,183.2,199.7,77.1
2025-10-28T10:55:11.259111,5.24,3105,44.1,98.9,184.7,85.2,78.6,81.1,17.8,-0.5,1.3,0.384,-0.042,-0.161,0.387,1.09,-0.02,-4.9,33.955504,-117.39564,393.9,43.4,11.9,9,True,194.1,88.2,184.6,201.6,78.3
2025-10-28T10:55:11.259183,5.26,3135,44.3,96.1,184.7,88.6,78.0,78.8,15.6,3.5,-2.2,0.393,-0.049,0.143,0.396,0.81,0.3,-6.88,33.955503,-117.395635,394.1,43.5,12.0,11,True,194.6,85.9,189.2,200.5,78.9
2025-10-28T10:55:11.259250,5.28,3082,44.4,91.4,185.6,87.6,76.9,74.9,15.3,-3.0,-1.1,0.385,-0.012,-0.168,0.385,0.54,-0.27,7.84,33.955502,-117.395631,397.8,45.0,12.1,10,True,195.9,85.4,191.3,197.2,77.9
2025-10-28T10:55:11.259318,5.3,3110,44.6,95.9,184.5,85.2,73.9,78.6,23.7,0.4,2.2,0.381,-0.029,0.079,0.382,1.04,0.22,5.34,33.955502,-117.395627,392.6,45.5,12.2,7,True,195.6,84.7,184.2,198.9,78.0
2025-10-28T10:55:11.259383,5.32,3135,44.8,95.0,187.4,85.6,76.3,77.9,21.2,-0.7,-0.8,0.4,0.023,0.173,0.401,1.05,-0.29,-4.48,33.955501,-117.395623,394.1,45.4,12.3,11,True,196.8,85.3,188.6,200.0,77.3
2025-10-28T10:55:11.259452,5.34,3100,44.9,92.5,185.7,86.0,78.1,75.9,25.3,-0.3,-0.3,0.396,-0.013,-0.078,0.396,0.79,-0.5,2.14,33.9555,-117.395618,395.8,45.5,12.4,9,True,196.1,84.2,186.6,198.3,78.0
2025-10-28T10:55:11.259516,5.36,3105,45.1,97.3,187.4,87.3,73.4,79.8,18.9,2.8,0.9,0.371,0.003,-0.057,0.371,0.77,-0.4,6.58,33.955499,-117.395614,394.2,45.6,12.5,10,True,198.0,84.3,183.4,200.7,78.5
2025-10-28T10:55:11.259586,5.38,3193,45.3,94.8,185.5,85.4,77.5,77.7,16.9,0.5,1.3,0.366,-0.007,-0.081,0.366,0.48,-0.22,-4.17,33.955498,-117.39561,395.1,46.4,12.6,11,True,197.9,86.6,189.2,196.1,77.4
2025-10-28T10:55:11.259651,5.4,3195,45.4,93.5,187.4,86.1,76.9,76.7,25.0,-1.2,1.7,0.392,0.036,-0.164,0.394,0.81,0.41,-2.11,33.955498,-117.395606,397.2,45.9,12.6,10,True,194.5,86.3,187.2,200.4,77.8
2025-10-28T10:55:11.259728,5.42,3166,45.6,95.5,183.9,85.1,75.8,78.3,15.5,1.1,1.7,0.361,-0.006,0.144,0.361,0.84,-0.03,-3.04,33.955497,-117.395601,394.5,46.4,12.7,10,True,196.1,86.8,188.1,196.3,78.9
2025-10-28T10:55:11.259792,5.44,3168,45.8,95.8,187.8,87.2,74.4,78.5,19.4,-1.7,-2.2,0.401,-0.013,-0.055,0.401,0.78,-0.23,-7.15,33.955496,-117.395597,396.9,45.5,12.8,9,True,195.1,87.3,189.5,201.2,77.7
2025-10-28T10:55:11.259870,5.46,3158,45.9,95.8,185.0,89.0,74.5,78.6,25.8,2.6,1.3,0.357,0.049,0.01,0.361,0.85,0.44,-5.14,33.955495,-117.395593,396.3,44.8,12.9,8,True,196.6,88.7,189.1,199.1,78.5
2025-10-28T10:55:11.259951,5.48,3207,46.1,99.7,183.8,83.5,79.0,81.8,18.7,-1.4,-0.5,0.357,0.027,0.062,0.358,0.41,0.31,-5.72,33.955494,-117.395588,395.6,46.1,13.0,8,True,196.9,88.9,187.6,196.4,78.6
2025-10-28T10:55:11.260016,5.5,3201,46.3,98.1,183.4,83.9,79.3,80.4,24.6,2.3,1.3,0.375,0.02,-0.078,0.375,0.49,0.35,-3.38,33.955493,-117.395584,393.0,47.7,13.1,7,True,197.3,89.0,192.3,201.0,78.8
2025-10-28T10:55:11.260080,5.52,3255,46.4,97.3,185.6,87.7,79.5,79.8,23.1,-2.8,-2.0,0.384,0.038,-0.014,0.386,0.45,0.57,7.5,33.955493,-117.395579,394.7,47.9,13.2,7,True,196.6,87.8,190.1,199.7,78.2
2025-10-28T10:55:11.260141,5.54,3192,46.6,94.1,185.9,84.7,78.0,77.2,15.4,-1.4,1.2,0.365,0.031,-0.071,0.367,0.88,-0.4,-2.47,33.955492,-117.395575,395.0,45.2,13.3,7,True,197.4,84.9,187.9,198.3,77.1
2025-10-28T10:55:11.260204,5.56,3200,46.8,95.3,184.6,86.0,75.5,78.2,23.3,-0.9,0.9,0.392,0.025,0.007,0.392,0.86,-0.05,-6.13,33.955491,-117.395571,393.5,46.4,13.4,8,True,195.5,84.4,189.5,201.0,77.7
2025-10-28T10:55:11.260260,5.58,3188,46.9,97.3,187.7,87.8,75.0,79.7,18.1,2.3,-1.9,0.364,-0.006,-0.179,0.364,0.28,0.13,-4.17,33.95549,-117.395566,396.6,47.3,13.5,8,True,195.6,84.3,188.5,196.2,78.6
2025-10-28T10:55:11.260324,5.6,3283,47.1,98.4,186.8,84.3,75.8,80.7,23.4,0.7,-0.7,0.4,-0.038,-0.034,0.401,0.61,-0.1,1.12,33.955489,-117.395562,392.6,48.5,13.6,10,True,194.5,88.8,190.8,195.9,77.9
2025-10-28T10:55:11.260385,5.62,3262,47.2,95.6,188.3,87.0,78.4,78.4,20.3,-2.5,2.1,0.357,0.012,0.01,0.357,0.75,0.38,-6.97,33.955488,-117.395557,395.9,46.8,13.7,11,True,198.0,85.9,187.1,199.2,78.5
2025-10-28T10:55:11.260444,5.64,3295,47.4,90.0,186.5,86.2,80.7,73.8,22.5,1.6,0.1,0.393,0.028,0.179,0.394,0.9,0.16,-6.93,33.955487,-117.395553,392.7,46.5,13.8,8,True,194.9,88.2,188.4,198.4,78.7
2025-10-28T10:55:11.260508,5.66,3227,47.6,92.3,184.6,86.5,79.2,75.7,16.5,2.4,1.5,0.356,0.035,0.024,0.358,0.73,0.0,5.3,33.955486,-117.395548,395.9,46.6,13.9,10,True,198.7,88.6,183.9,198.5,77.6
2025-10-28T10:55:11.260571,5.68,3254,47.7,98.4,188.1,87.4,76.5,80.7,17.3,3.2,1.4,0.36,-0.044,-0.1,0.363,0.93,-0.48,5.15,33.955485,-117.395544,396.3,49.0,14.0,8,True,195.4,85.5,186.2,196.8,78.6
2025-10-28T10:55:11.260638,5.7,3255,47.9,98.6,185.7,87.4,76.9,80.8,18.6,-1.5,0.3,0.356,0.023,0.052,0.356,0.73,0.29,-0.43,33.955485,-117.395539,392.6,48.2,14.1,7,True,198.0,85.8,186.5,196.7,78.4
2025-10-28T10:55:11.260707,5.72,3331,48.1,94.5,185.9,84.4,76.8,77.5,18.9,2.6,-0.9,0.407,0.001,-0.132,0.407,0.52,0.37,7.79,33.955484,-117.395535,395.2,49.3,14.2,8,True,198.2,87.4,190.7,200.9,77.4
2025-10-28T10:55:11.260770,5.74,3322,48.2,92.0,188.0,84.3,77.7,75.4,24.5,2.5,-0.7,0.39,0.012,-0.082,0.39,0.57,0.03,-0.54,33.955483,-117.39553,396.7,48.7,14.3,11,True,195.7,84.3,186.3,200.2,78.5
2025-10-28T10:55:11.260834,5.76,3283,48.4,90.9,188.1,87.5,79.1,74.6,20.0,1.4,0.9,0.38,0.033,-0.059,0.382,0.71,0.04,-5.75,33.955482,-117.395526,396.2,46.9,14.4,11,True,197.1,88.0,185.5,197.6,79.0
2025-10-28T10:55:11.260904,5.78,3298,48.6,99.5,187.2,83.7,77.0,81.6,17.0,-0.5,0.3,0.365,0.027,-0.015,0.366,0.93,-0.08,0.73,33.955481,-117.395521,394.2,49.5,14.5,7,True,198.8,88.3,190.3,200.4,78.0
2025-10-28T10:55:11.260967,5.8,3370,48.7,93.5,186.9,85.4,76.4,76.7,17.8,0.2,0.6,0.387,-0.048,-0.164,0.39,0.6,0.15,7.81,33.95548,-117.395517,397.6,49.1,14.6,9,True,194.3,88.0,187.9,197.6,77.3
2025-10-28T10:55:11.261087,5.82,3339,48.9,96.9,185.3,86.8,77.4,79.4,16.8,-2.6,0.7,0.353,-0.012,0.088,0.353,0.5,0.43,-2.78,33.955479,-117.395512,394.1,48.9,14.7,9,True,197.7,85.2,185.6,201.2,78.6
2025-10-28T10:55:11.261160,5.84,3327,49.1,99.4,188.0,84.5,76.4,81.5,21.1,-2.6,-0.6,0.378,0.045,0.172,0.38,0.38,0.43,4.14,33.955478,-117.395507,393.1,48.2,14.8,7,True,197.4,86.2,189.7,195.9,77.1
2025-10-28T10:55:11.261335,5.86,3335,49.2,97.0,187.6,85.7,76.3,79.6,24.4,-3.1,-1.3,0.37,-0.0,0.076,0.37,0.31,-0.12,7.28,33.955477,-117.395503,397.4,48.2,14.9,7,True,194.9,84.6,191.5,197.9,79.0
2025-10-28T10:55:11.261434,5.88,3362,49.4,96.1,185.0,88.9,80.7,78.8,23.6,3.4,-0.6,0.39,0.011,-0.044,0.39,0.89,0.5,-6.01,33.955476,-117.395498,394.3,50.2,15.0,8,True,196.2,85.4,188.8,197.9,78.9
2025-10-28T10:55:11.261507,5.9,3377,49.6,96.6,183.7,86.0,76.8,79.2,20.2,-3.2,-1.7,0.394,-0.043,-0.073,0.397,0.49,-0.32,-6.54,33.955475,-117.395493,392.6,49.7,15.1,10,True,196.3,84.6,187.3,201.7,77.2
2025-10-28T10:55:11.261573,5.92,3391,49.7,96.1,186.2,88.9,76.2,78.8,22.7,-2.6,-1.7,0.398,0.0,-0.061,0.398,0.74,-0.28,3.08,33.955474,-117.395489,394.2,50.0,15.2,7,True,196.1,86.7,185.3,201.3,78.8
2025-10-28T10:55:11.261640,5.94,3407,49.9,91.2,184.2,83.6,81.1,74.8,16.5,-1.4,0.8,0.35,0.02,-0.048,0.351,0.75,0.23,-2.65,33.955473,-117.395484,396.0,50.2,15.3,8,True,198.5,87.8,182.6,195.9,78.6
2025-10-28T10:55:11.261707,5.96,3352,50.1,91.4,184.8,83.5,79.3,75.0,20.1,-3.0,-1.5,0.36,-0.013,-0.014,0.36,0.84,-0.01,-3.91,33.955471,-117.395479,392.4,50.5,15.4,8,True,198.9,84.4,188.2,200.8,78.7
2025-10-28T10:55:11.261779,5.98,3361,50.2,99.6,188.0,86.4,79.6,81.6,21.7,-2.5,-0.4,0.393,-0.034,-0.044,0.395,0.59,-0.49,7.68,33.95547,-117.395475,397.6,49.0,15.5,7,True,197.3,88.5,190.7,200.3,77.9
2025-10-28T10:55:11.261849,6.0,3420,50.4,95.1,185.5,86.9,77.2,78.0,17.0,-2.1,1.0,0.402,0.004,-0.093,0.402,0.4,0.5,-6.28,33.955469,-117.39547,393.1,49.7,15.6,9,True,195.0,86.9,182.8,200.5,78.2
2025-10-28T10:55:11.261915,6.02,3396,50.6,95.9,184.1,88.5,79.7,78.6,23.6,0.2,-0.0,0.392,-0.01,-0.11,0.392,0.48,0.3,-2.78,33.955468,-117.395465,395.1,49.9,15.7,10,True,197.7,87.9,187.5,201.5,78.6
2025-10-28T10:55:11.262013,6.04,3428,50.7,96.2,187.9,88.5,76.6,78.9,25.7,-2.6,-0.7,0.373,0.015,0.119,0.373,0.39,-0.16,5.42,33.955467,-117.395461,397.6,50.3,15.8,7,True,197.6,88.3,192.5,200.5,77.8
2025-10-28T10:55:11.262090,6.06,3444,50.9,98.7,187.4,87.4,79.4,81.0,23.1,0.2,-1.2,0.382,-0.023,-0.089,0.383,0.63,0.43,2.22,33.955466,-117.395456,394.3,50.0,15.9,11,True,194.5,86.2,184.8,196.2,78.9
2025-10-28T10:55:11.262168,6.08,3464,51.1,92.3,185.5,84.6,79.1,75.7,22.1,1.2,-0.1,0.404,0.008,-0.144,0.404,0.88,0.41,-4.05,33.955465,-117.395451,397.8,50.2,16.0,9,True,198.4,88.3,183.7,201.5,77.0
